[
  {
    "website": "http://www.Team1218.org",
    "name": "Vulcan Spring / Metal Edge International / Boeing Company / TE Connectivity  / Gallagher Fluid Seals, Inc. / Fabspeed Motorsport / ErvTech International / William A. Killian Hardware & Springside School & Chestnut Hill Academy",
    "locality": "Philadelphia",
    "rookie_year": 2003,
    "region": "Pennsylvania",
    "team_number": 1218,
    "location": "Philadelphia, Pennsylvania, USA",
    "key": "frc1218",
    "country_name": "USA",
    "motto": "Building a better world, one robot at a time",
    "nickname": "Vulcan Robotics"
  },
  {
    "website": "http://www.firstinspires.org/",
    "name": "IMC Construction/Adaptive Textiles/Tullman Walker Racing/Superion Technology/Arnold Investment Group/The Rue Crew/Nora-Gulfa.com/LoweRiders Bikes & Boards/L.H.A.S.P. /Alcobra Metals/Sandgate Technologies & Westtown School",
    "locality": "Westtown",
    "rookie_year": 2004,
    "region": "Pennsylvania",
    "team_number": 1391,
    "location": "Westtown, Pennsylvania, USA",
    "key": "frc1391",
    "country_name": "USA",
    "motto": "the moose is loose",
    "nickname": "The METAL MOOSE"
  },
  {
    "website": "http:///sites.google.com/site/roboticsteam1495/home",
    "name": "Avon Grove Hs",
    "locality": "West Grove",
    "rookie_year": 2004,
    "region": "Pennsylvania",
    "team_number": 1495,
    "location": "West Grove, Pennsylvania, USA",
    "key": "frc1495",
    "country_name": "USA",
    "motto": null,
    "nickname": "Red Devils"
  },
  {
    "website": "http://wiki.team1640.com",
    "name": "The Boeing Company / United Technologies Corporation / Comcast / Chester County Intermediate Unit / Arkema Inc. / Herr's Foods / American Society of Mechanical Engineers Philadelphia Chapter & Downingtown Area Robotics",
    "locality": "Downingtown",
    "rookie_year": 2005,
    "region": "Pennsylvania",
    "team_number": 1640,
    "location": "Downingtown, Pennsylvania, USA",
    "key": "frc1640",
    "country_name": "USA",
    "motto": "Think outside the 'bot!",
    "nickname": "Sab-BOT-age"
  },
  {
    "website": "http://team1647.com/",
    "name": "Lockheed Martin / Lenape Regional High School District / ShopRite of Medford / Shamong Manufacturing / Jemco-Erectors, Inc. / PreCast Management / Compex Corporation / Radwell International, Inc. / CSC / Brand Muscle Corporation / All State Insurance-Chaz Clancy / MTG Services, Inc. / Harriett's Energy Solutions / Seneca Renaissance / Whole Foods & Seneca High School & Shawnee High School",
    "locality": "Tabernacle",
    "rookie_year": 2005,
    "region": "New Jersey",
    "team_number": 1647,
    "location": "Tabernacle, New Jersey, USA",
    "key": "frc1647",
    "country_name": "USA",
    "motto": "We build robots that's what we do!",
    "nickname": "Iron Devils"
  },
  {
    "website": "http://robotics1791.bappy.com/index.html",
    "name": "National Auto Sales/Morehouse Engineering/ADP/Nick's Pizzaria/Godwin Pumps/First Robotics-anonymous sponsor/jcpenney & Clayton High",
    "locality": "Clayton",
    "rookie_year": 2006,
    "region": "New Jersey",
    "team_number": 1791,
    "location": "Clayton, New Jersey, USA",
    "key": "frc1791",
    "country_name": "USA",
    "motto": null,
    "nickname": "T.O.P. Hatters"
  },
  {
    "website": "http://www.firstwiki.net/index.php/1807",
    "name": "United Technologies Aerospace Systems / NAVAIR / NORDSON  EFD / Upper Freehold Regional School District Board of Education & Allentown High",
    "locality": "Allentown",
    "rookie_year": 2006,
    "region": "New Jersey",
    "team_number": 1807,
    "location": "Allentown, New Jersey, USA",
    "key": "frc1807",
    "country_name": "USA",
    "motto": "One goal, one ambition, multiple minds",
    "nickname": "Redbird Robotics"
  },
  {
    "website": "http://www.goteam2016.com",
    "name": "Johnson & Johnson Consumer and Personal Products Worldwide / nrg / DOTC STEM Picatinny / National Defense Education Program / New Jersey School for the Deaf / Morris Millwork / Ewing Township Education Association & Ewing High",
    "locality": "Ewing",
    "rookie_year": 2007,
    "region": "New Jersey",
    "team_number": 2016,
    "location": "Ewing, New Jersey, USA",
    "key": "frc2016",
    "country_name": "USA",
    "motto": "Heavy Metal Monkey Business",
    "nickname": "Mighty Monkey Wrenches"
  },
  {
    "website": "http://www.rockyrobot.com",
    "name": "Campbell's Soup & Camden Co Tech  Gloucester",
    "locality": "Sicklerville",
    "rookie_year": 1998,
    "region": "New Jersey",
    "team_number": 203,
    "location": "Sicklerville, New Jersey, USA",
    "key": "frc203",
    "country_name": "USA",
    "motto": "One T.U.F.F. Team! Team United for FIRST.",
    "nickname": "One TUFF Team (Team United for FIRST)"
  },
  {
    "website": "http://www.firstinspires.org/",
    "name": "the Episcopal Academy",
    "locality": "Newtown Square",
    "rookie_year": 2007,
    "region": "Pennsylvania",
    "team_number": 2095,
    "location": "Newtown Square, Pennsylvania, USA",
    "key": "frc2095",
    "country_name": "USA",
    "motto": null,
    "nickname": "Direct Current"
  },
  {
    "website": "http://www.team2191.com",
    "name": "Nordson Corp. / Hamilton Township Education Assoc. HTEA & Hamilton North  Nottingham",
    "locality": "Hamilton",
    "rookie_year": 2007,
    "region": "New Jersey",
    "team_number": 2191,
    "location": "Hamilton, New Jersey, USA",
    "key": "frc2191",
    "country_name": "USA",
    "motto": "You will be seeing stars",
    "nickname": "Flux Core"
  },
  {
    "website": "http://www.firstinspires.org/",
    "name": "the Episcopal Academy",
    "locality": "Newtown Square",
    "rookie_year": 2007,
    "region": "Pennsylvania",
    "team_number": 2234,
    "location": "Newtown Square, Pennsylvania, USA",
    "key": "frc2234",
    "country_name": "USA",
    "motto": "Esse Quam Videri",
    "nickname": "Alternating Current"
  },
  {
    "website": "http://www.chaos2458.com",
    "name": "Gill St Bernard S School",
    "locality": "Gladstone",
    "rookie_year": 2008,
    "region": "New Jersey",
    "team_number": 2458,
    "location": "Gladstone, New Jersey, USA",
    "key": "frc2458",
    "country_name": "USA",
    "motto": "Roboticum mundus est",
    "nickname": "Team Chaos"
  },
  {
    "website": "http:///team2495.com",
    "name": "Bloomberg  / NextFab / HTEA-NJEA & Hamilton West  Watson",
    "locality": "Hamilton",
    "rookie_year": 2008,
    "region": "New Jersey",
    "team_number": 2495,
    "location": "Hamilton, New Jersey, USA",
    "key": "frc2495",
    "country_name": "USA",
    "motto": null,
    "nickname": "Hive Mind"
  },
  {
    "website": "http://www.raiderrobotix.org",
    "name": "Bristol-Myers Squibb Co./American Alloy Fabricators/Abbe Lumber/Becton Dickinson & North Brunswick Twp High",
    "locality": "North Brunswick",
    "rookie_year": 1997,
    "region": "New Jersey",
    "team_number": 25,
    "location": "North Brunswick, New Jersey, USA",
    "key": "frc25",
    "country_name": "USA",
    "motto": "there's nothing beyond our reach",
    "nickname": "Raider Robotix"
  },
  {
    "website": "https://sites.google.com/site/firstteam2539/",
    "name": "Tyco Electronics Foundation/Hershey/Leidos Engineering/Comcast/Focused Business Solutions/RBS Fab/N.S. Johnson Heating & Cooling & Palmyra Area Shs",
    "locality": "Palmyra",
    "rookie_year": 2008,
    "region": "Pennsylvania",
    "team_number": 2539,
    "location": "Palmyra, Pennsylvania, USA",
    "key": "frc2539",
    "country_name": "USA",
    "motto": null,
    "nickname": "Krypton Cougars"
  },
  {
    "website": "http:///www.normalityzero.com",
    "name": "TE Connectivity/The Hershey Company/Janville Roofing and Siding/Collective Intelligence/Mount Joy Wire/Kroah Remodeling  & Dauphin County Technical School",
    "locality": "Harrisburg",
    "rookie_year": 2008,
    "region": "Pennsylvania",
    "team_number": 2559,
    "location": "Harrisburg, Pennsylvania, USA",
    "key": "frc2559",
    "country_name": "USA",
    "motto": "Nothing ventured, Nothing gained",
    "nickname": "Normality Zero"
  },
  {
    "website": "http://frc2590.org/",
    "name": "Bristol-Myers Squibb / NavAir / CCL Label / New York Society of Cosmetic Chemists / Siemens / Investors Foundation / Lockheed Martin / Robbinsville Education Association / Robbinsville Education Foundation / Carfaro Railing / DesignTree / RAS Process Equipment / Gilbane Inc. / SRI International / McGraw Hill Financial / NorthStar Vet & Robbinsville High School",
    "locality": "Robbinsville",
    "rookie_year": 2008,
    "region": "New Jersey",
    "team_number": 2590,
    "location": "Robbinsville, New Jersey, USA",
    "key": "frc2590",
    "country_name": "USA",
    "motto": null,
    "nickname": "Nemesis"
  },
  {
    "website": "http://www.robovikings.com",
    "name": "Lockheed Martin Corp/Signature Consulting Solutions & Archbishop Wood High School",
    "locality": "Warminster",
    "rookie_year": 2008,
    "region": "Pennsylvania",
    "team_number": 2607,
    "location": "Warminster, Pennsylvania, USA",
    "key": "frc2607",
    "country_name": "USA",
    "motto": "Purveyors of Gracious Professionalism",
    "nickname": "The Fighting RoboVikings"
  },
  {
    "website": "http://stormrobots.org",
    "name": "Lenape Regional Robotics / Lockheed Martin / Naval Air Systems Command / Comcast & NBC Universal / Storm Robotics Parent Club / National Defense Education Program / Vision Edge L.L.C. / CADPRO Inc. / Pancheros Mexican Grill / Radwell International & Cherokee High School & Lenape High School",
    "locality": "Marlton",
    "rookie_year": 2009,
    "region": "New Jersey",
    "team_number": 2729,
    "location": "Marlton, New Jersey, USA",
    "key": "frc2729",
    "country_name": "USA",
    "motto": null,
    "nickname": "Storm Robotics Team"
  },
  {
    "website": "http://www.team304.com",
    "name": "Lockheed Martin & Washington George Hs",
    "locality": "Philadelphia",
    "rookie_year": 1999,
    "region": "Pennsylvania",
    "team_number": 304,
    "location": "Philadelphia, Pennsylvania, USA",
    "key": "frc304",
    "country_name": "USA",
    "motto": "Shoot for FIRST!",
    "nickname": "GWHS Robo Griffins"
  },
  {
    "website": "http://www.firstinspires.org/",
    "name": "Airline Hydraulics & Father Judge High School",
    "locality": "Philadelphia",
    "rookie_year": 2010,
    "region": "Pennsylvania",
    "team_number": 3167,
    "location": "Philadelphia, Pennsylvania, USA",
    "key": "frc3167",
    "country_name": "USA",
    "motto": "It's Not About the Robot",
    "nickname": "Mechanical Misfits"
  },
  {
    "website": "http://www.team341.com/",
    "name": "DOW Chemical / Comcast / The Boeing Company / BAE Systems / Lockheed Martin / Cobham Defense Electronics / Janssen Biotech Inc. / Johnson & Johnson / Society of Women Engineers / D.i.D. Agency / Blue Bell Technologies / Denney Electric Supply & Wissahickon Shs",
    "locality": "Ambler",
    "rookie_year": 2000,
    "region": "Pennsylvania",
    "team_number": 341,
    "location": "Ambler, Pennsylvania, USA",
    "key": "frc341",
    "country_name": "USA",
    "motto": "We Build People",
    "nickname": "Miss Daisy"
  },
  {
    "website": "http:///facebook.com/4454ArtisinalRocketeers",
    "name": "The Franklin Institute / The Boeing Company / NDEP / Braskem & Science Leadership Academy",
    "locality": "Philadelphia",
    "rookie_year": 2013,
    "region": "Pennsylvania",
    "team_number": 4454,
    "location": "Philadelphia, Pennsylvania, USA",
    "key": "frc4454",
    "country_name": "USA",
    "motto": "Fail Fast, Fail Often, Fail Forward",
    "nickname": "Artisan Rockets"
  },
  {
    "website": "http://www.team486.com",
    "name": "The Boeing Company/Tancredi's Auto & Truck/3M Dyneon & Strath Haven Hs",
    "locality": "Wallingford",
    "rookie_year": 2000,
    "region": "Pennsylvania",
    "team_number": 486,
    "location": "Wallingford, Pennsylvania, USA",
    "key": "frc486",
    "country_name": "USA",
    "motto": null,
    "nickname": "Positronic Panthers"
  },
  {
    "website": "http://www.mhsfirst.org",
    "name": "Lockheed Martin / OPEX Corporation / ASRC Federal Mission Solutions / Comcast NBCUniversal & Moorestown High",
    "locality": "Moorestown",
    "rookie_year": 2014,
    "region": "New Jersey",
    "team_number": 5113,
    "location": "Moorestown, New Jersey, USA",
    "key": "frc5113",
    "country_name": "USA",
    "motto": "When life gives you lemons, don't just make lemonade.",
    "nickname": "Combustible Lemons"
  },
  {
    "website": "https://www.lschs.org/clubs-activities/robotics",
    "name": "La Salle College High School Mothers' Club / Aegis Industrial Software Corporation / 2014 FRC Rookie Grant / Stantec / Strictly Residential Services  / Fitzpatrick Funeral Home / Treasured Signs / Elaine Rose-Kennedy / Lockheed Martin / The Boeing Company & La Salle College High School",
    "locality": "Wyndmoor",
    "rookie_year": 2014,
    "region": "Pennsylvania",
    "team_number": 5181,
    "location": "Wyndmoor, Pennsylvania, USA",
    "key": "frc5181",
    "country_name": "USA",
    "motto": "Don't let perfect be the enemy of good.",
    "nickname": "La Salle Robotics"
  },
  {
    "website": "http://www.firstinspires.org/",
    "name": "The Boeing Company / PECO / Tech Cycle Performance Products / Pennsylvania Steel / Coren Metal Inc. & Bensalem Twp Hs",
    "locality": "Bensalem",
    "rookie_year": 2015,
    "region": "Pennsylvania",
    "team_number": 5401,
    "location": "Bensalem, Pennsylvania, USA",
    "key": "frc5401",
    "country_name": "USA",
    "motto": null,
    "nickname": "Fightin' Robotic Owls"
  },
  {
    "website": "http://www.firstinspires.org/",
    "name": "Vulcan Spring & Manufacturing Company/Scott Rankin/The Boeing Company/Aspen Resource Group /AIM Academy & AIM ACADEMY",
    "locality": "Conshohocken",
    "rookie_year": 2015,
    "region": "Pennsylvania",
    "team_number": 5407,
    "location": "Conshohocken, Pennsylvania, USA",
    "key": "frc5407",
    "country_name": "USA",
    "motto": null,
    "nickname": "Wolfpack Robotics"
  },
  {
    "website": "http://www.firstinspires.org/",
    "name": "Robotech Educational Services Inc. & Burlington Twp High",
    "locality": "Burlington",
    "rookie_year": 2015,
    "region": "New Jersey",
    "team_number": 5457,
    "location": "Burlington, New Jersey, USA",
    "key": "frc5457",
    "country_name": "USA",
    "motto": null,
    "nickname": "Falcobots"
  },
  {
    "website": "http://www.firstinspires.org/",
    "name": "Moravian Academy",
    "locality": "Bethlehem",
    "rookie_year": 2015,
    "region": "Pennsylvania",
    "team_number": 5490,
    "location": "Bethlehem, Pennsylvania, USA",
    "key": "frc5490",
    "country_name": "USA",
    "motto": null,
    "nickname": "The Dark Byte"
  },
  {
    "website": "http://www.firstinspires.org/",
    "name": "NASA / Century Engineering Inc. & Delaware 4H",
    "locality": "Dover",
    "rookie_year": 2016,
    "region": "Delaware",
    "team_number": 5938,
    "location": "Dover, Delaware, USA",
    "key": "frc5938",
    "country_name": "USA",
    "motto": null,
    "nickname": "Razor Steel Robotics"
  },
  {
    "website": "http://www.firstinspires.org/",
    "name": "Burlington City High",
    "locality": "Burlington",
    "rookie_year": 2016,
    "region": "New Jersey",
    "team_number": 6226,
    "location": "Burlington, New Jersey, USA",
    "key": "frc6226",
    "country_name": "USA",
    "motto": null,
    "nickname": "Blue Devils"
  },
  {
    "website": "http://www.team708.org/",
    "name": "Lockheed Martin/AutoDesk/Carr & Duff/Danella Rental Systems/Hatboro-Horsham Education Foundation/Detroit Wheel & Tire/Hatboro Federal Savings & Hatboro-Horsham Shs",
    "locality": "Horsham",
    "rookie_year": 2001,
    "region": "Pennsylvania",
    "team_number": 708,
    "location": "Horsham, Pennsylvania, USA",
    "key": "frc708",
    "country_name": "USA",
    "motto": null,
    "nickname": "Hatters Robotics"
  },
  {
    "website": "http://robotics.agnesirwin.org",
    "name": "The Boeing Company / Glaxo-Smith-Klein & Agnes Irwin School",
    "locality": "Bryn Mawr",
    "rookie_year": 2001,
    "region": "Pennsylvania",
    "team_number": 709,
    "location": "Bryn Mawr, Pennsylvania, USA",
    "key": "frc709",
    "country_name": "USA",
    "motto": "Girls are the future of techology",
    "nickname": "Femme Tech Fatale"
  },
  {
    "website": "http://team834.org",
    "name": "Lutron Electronics, Inc/CHL Systems & Southern Lehigh Shs",
    "locality": "Center Valley",
    "rookie_year": 2002,
    "region": "Pennsylvania",
    "team_number": 834,
    "location": "Center Valley, Pennsylvania, USA",
    "key": "frc834",
    "country_name": "USA",
    "motto": "Put a wrench in it",
    "nickname": "SparTechs"
  },
  {
    "website": "http://www.rvr87.com/",
    "name": "Lockheed Martin/COMCAST/NAVSEA & NDEP/CPS Metals/AndyMark/Chick-Fil-A & Rancocas Valley Reg H",
    "locality": "Mount Holly",
    "rookie_year": 1997,
    "region": "New Jersey",
    "team_number": 87,
    "location": "Mount Holly, New Jersey, USA",
    "key": "frc87",
    "country_name": "USA",
    "motto": "\"FIRST you go to Robotics, then you can go ANYWHERE!\"",
    "nickname": "Red Devils"
  }
]