[
  {
    "website": "http://www.cybersonics.org",
    "name": "Amplifier Research/Hot Chalk/Lutron Electronics, Inc/PHTool/Tyndale/BAE Systems/Fred Beans Automotive/Stokes Manufacturing/Harro Hoflinger/Client Link & Palisades Hs",
    "locality": "Kintnersville",
    "rookie_year": 1997,
    "region": "Pennsylvania",
    "team_number": 103,
    "location": "Kintnersville, Pennsylvania, USA",
    "key": "frc103",
    "country_name": "USA",
    "motto": "Vision. Pasion. Commitment",
    "nickname": "Cybersonics"
  },
  {
    "website": "http://www.cruzincomets.com",
    "name": "Lockheed Martin/One Point Inc./Abington Education Improvement Organization & Abington Heights Hs",
    "locality": "Clarks Summit",
    "rookie_year": 2003,
    "region": "Pennsylvania",
    "team_number": 1143,
    "location": "Clarks Summit, Pennsylvania, USA",
    "key": "frc1143",
    "country_name": "USA",
    "motto": null,
    "nickname": "Cruzin' Comets"
  },
  {
    "website": "http://team1168robotics.blogspot.com/",
    "name": "CTDI/Exelon Generation & Malvern Preparatory School",
    "locality": "Malvern",
    "rookie_year": 2003,
    "region": "Pennsylvania",
    "team_number": 1168,
    "location": "Malvern, Pennsylvania, USA",
    "key": "frc1168",
    "country_name": "USA",
    "motto": null,
    "nickname": "Malvern Robotics"
  },
  {
    "website": "http://www.Team1218.org",
    "name": "Vulcan Spring / Metal Edge International / Boeing Company / TE Connectivity  / Gallagher Fluid Seals, Inc. / Fabspeed Motorsport / ErvTech International / William A. Killian Hardware & Springside School & Chestnut Hill Academy",
    "locality": "Philadelphia",
    "rookie_year": 2003,
    "region": "Pennsylvania",
    "team_number": 1218,
    "location": "Philadelphia, Pennsylvania, USA",
    "key": "frc1218",
    "country_name": "USA",
    "motto": "Building a better world, one robot at a time",
    "nickname": "Vulcan Robotics"
  },
  {
    "website": "http://www.team1370.org/",
    "name": "Appoquinimink School District / Friends of Middletown Robotics / DuPont Engineering / Big Ball Maraton / Friendly's  / Pretzel Boy / Town of Middletown, DE / New Castle County & APPOQUINIMINK HIGH SCHOOL & MIDDLETOWN HIGH SCHOOL",
    "locality": "Middletown",
    "rookie_year": 2004,
    "region": "Delaware",
    "team_number": 1370,
    "location": "Middletown, Delaware, USA",
    "key": "frc1370",
    "country_name": "USA",
    "motto": "Construimus.  Certamus.  Movemus.",
    "nickname": "Thermogenesis"
  },
  {
    "website": "http://www.firstinspires.org/",
    "name": "IMC Construction/Adaptive Textiles/Tullman Walker Racing/Superion Technology/Arnold Investment Group/The Rue Crew/Nora-Gulfa.com/LoweRiders Bikes & Boards/L.H.A.S.P. /Alcobra Metals/Sandgate Technologies & Westtown School",
    "locality": "Westtown",
    "rookie_year": 2004,
    "region": "Pennsylvania",
    "team_number": 1391,
    "location": "Westtown, Pennsylvania, USA",
    "key": "frc1391",
    "country_name": "USA",
    "motto": "the moose is loose",
    "nickname": "The METAL MOOSE"
  },
  {
    "website": "http://wiki.team1640.com",
    "name": "The Boeing Company / United Technologies Corporation / Comcast / Chester County Intermediate Unit / Arkema Inc. / Herr's Foods / American Society of Mechanical Engineers Philadelphia Chapter & Downingtown Area Robotics",
    "locality": "Downingtown",
    "rookie_year": 2005,
    "region": "Pennsylvania",
    "team_number": 1640,
    "location": "Downingtown, Pennsylvania, USA",
    "key": "frc1640",
    "country_name": "USA",
    "motto": "Think outside the 'bot!",
    "nickname": "Sab-BOT-age"
  },
  {
    "website": "http://www.team1712.org",
    "name": "Lockheed Martin/National Defense Education Program/Google & Lower Merion Hs",
    "locality": "Ardmore",
    "rookie_year": 2006,
    "region": "Pennsylvania",
    "team_number": 1712,
    "location": "Ardmore, Pennsylvania, USA",
    "key": "frc1712",
    "country_name": "USA",
    "motto": "Designing on all fours",
    "nickname": "Dawgma"
  },
  {
    "website": "http://www.techfire225.com/",
    "name": "PRESIDIO / St. Onge Company / TE Connectivity / Coupling Corporation of America / DLA Piper / ASGCO Complete Conveyor Solutions / Penn-Air & Hydraulics / DeWALT / Leidos / BAE Systems / Tekgard / Fred Dallmeyer Fund of York County Community Foundation / Google & TechFire Robotics of York",
    "locality": "York",
    "rookie_year": 1999,
    "region": "Pennsylvania",
    "team_number": 225,
    "location": "York, Pennsylvania, USA",
    "key": "frc225",
    "country_name": "USA",
    "motto": null,
    "nickname": "TechFire"
  },
  {
    "website": "https://sites.google.com/site/firstteam2539/",
    "name": "Tyco Electronics Foundation / Hershey / Leidos Engineering / Comcast / Kline Brothers Metal Fabrication / N.S. Johnson Heating & Cooling & Palmyra Area Shs",
    "locality": "Palmyra",
    "rookie_year": 2008,
    "region": "Pennsylvania",
    "team_number": 2539,
    "location": "Palmyra, Pennsylvania, USA",
    "key": "frc2539",
    "country_name": "USA",
    "motto": null,
    "nickname": "Krypton Cougars"
  },
  {
    "website": "http:///www.normalityzero.com",
    "name": "TE Connectivity/The Hershey Company/Janville Roofing and Siding/Collective Intelligence/Mount Joy Wire/Kroah Remodeling  & Dauphin County Technical School",
    "locality": "Harrisburg",
    "rookie_year": 2008,
    "region": "Pennsylvania",
    "team_number": 2559,
    "location": "Harrisburg, Pennsylvania, USA",
    "key": "frc2559",
    "country_name": "USA",
    "motto": "Nothing ventured, Nothing gained",
    "nickname": "Normality Zero"
  },
  {
    "website": "http://www.robovikings.com",
    "name": "Lockheed Martin Corp/Signature Consulting Solutions & Archbishop Wood High School",
    "locality": "Warminster",
    "rookie_year": 2008,
    "region": "Pennsylvania",
    "team_number": 2607,
    "location": "Warminster, Pennsylvania, USA",
    "key": "frc2607",
    "country_name": "USA",
    "motto": "Purveyors of Gracious Professionalism",
    "nickname": "The Fighting RoboVikings"
  },
  {
    "website": "http://www.frc272.com/",
    "name": "Comcast NBCUniversal / ASI Technologies / Lansdale Cannoneers Sportsman Club  / Rajant Corporation / ICON Clinical Research PLC. / 2016 FRC(R) Hardship Grant & Lansdale Catholic High School",
    "locality": "Lansdale",
    "rookie_year": 1998,
    "region": "Pennsylvania",
    "team_number": 272,
    "location": "Lansdale, Pennsylvania, USA",
    "key": "frc272",
    "country_name": "USA",
    "motto": "We will find a way or make one!",
    "nickname": "Cyber-Crusaders"
  },
  {
    "website": "http://www.firstinspires.org/",
    "name": "Lockheed Martin / Exxon Mobil / Elevator Repair LLC & Gloucester Co Inst Tech",
    "locality": "Sewell",
    "rookie_year": 2010,
    "region": "New Jersey",
    "team_number": 3151,
    "location": "Sewell, New Jersey, USA",
    "key": "frc3151",
    "country_name": "USA",
    "motto": null,
    "nickname": "Cyberstorm"
  },
  {
    "website": "http://www.sjrobotics.com/lunatecs/",
    "name": "Picatinny Arsenal / DuPont / The Boeing Company / Salem County Community College / Public Service Electric & Gas & South Jersey Robotics Inc",
    "locality": "Carneys Point",
    "rookie_year": 1999,
    "region": "New Jersey",
    "team_number": 316,
    "location": "Carneys Point, New Jersey, USA",
    "key": "frc316",
    "country_name": "USA",
    "motto": "Small and mighty",
    "nickname": "LuNaTeCs"
  },
  {
    "website": "http://www.robolancers.com",
    "name": "Associated Alumni of Central High School / University of Pennsylvania / Drexel University / Comcast / Central High School Home and School Association & Central Hs",
    "locality": "Philadelphia",
    "rookie_year": 1999,
    "region": "Pennsylvania",
    "team_number": 321,
    "location": "Philadelphia, Pennsylvania, USA",
    "key": "frc321",
    "country_name": "USA",
    "motto": "Working to develop the leaders of our community and our world",
    "nickname": "RoboLancers"
  },
  {
    "website": "http://www.team341.com/",
    "name": "DOW Chemical / Comcast / The Boeing Company / BAE Systems / Lockheed Martin / Cobham Defense Electronics / Janssen Biotech Inc. / Johnson & Johnson / Society of Women Engineers / D.i.D. Agency / Blue Bell Technologies / Denney Electric Supply & Wissahickon Shs",
    "locality": "Ambler",
    "rookie_year": 2000,
    "region": "Pennsylvania",
    "team_number": 341,
    "location": "Ambler, Pennsylvania, USA",
    "key": "frc341",
    "country_name": "USA",
    "motto": "We Build People",
    "nickname": "Miss Daisy"
  },
  {
    "website": "http://www.moe365.org",
    "name": "DuPont Engineering / Verizon Foundation / On-Board Engineering / The Boeing Company / Southco / United Therapeutics Corporation / First State Robotics & Neighborhood Group",
    "locality": "Wilmington",
    "rookie_year": 2000,
    "region": "Delaware",
    "team_number": 365,
    "location": "Wilmington, Delaware, USA",
    "key": "frc365",
    "country_name": "USA",
    "motto": "Making Miracles Happen - One Student At A Time",
    "nickname": "Miracle Workerz"
  },
  {
    "website": "http://frc3929.org/",
    "name": "Bentley Systems/The Boeing Company/Comcast Corporation/Windle Mechanical Solutions Inc & Masterman Julia R Sec Sch",
    "locality": "Philadelphia",
    "rookie_year": 2012,
    "region": "Pennsylvania",
    "team_number": 3929,
    "location": "Philadelphia, Pennsylvania, USA",
    "key": "frc3929",
    "country_name": "USA",
    "motto": "Excellence. No Excuses.",
    "nickname": "Atomic Dragons"
  },
  {
    "website": "http://robotics.mcdevitths.org/",
    "name": "Comcast and NBCUniversal/Lockheed Martin/Arcadia University/PKB Engineering/Navmar Applied Sciences/McDevitt Alumni Association & Bishop Mcdevitt High School",
    "locality": "Wyncote",
    "rookie_year": 2012,
    "region": "Pennsylvania",
    "team_number": 3974,
    "location": "Wyncote, Pennsylvania, USA",
    "key": "frc3974",
    "country_name": "USA",
    "motto": "Safety First / GP Second",
    "nickname": "E=mCD"
  },
  {
    "website": "http:///www.423robotics.org",
    "name": "Cheltenham School District / Harris Corportation / Lockheed Martin / Ebe LLC & Cheltenham Hs",
    "locality": "Wyncote",
    "rookie_year": 2000,
    "region": "Pennsylvania",
    "team_number": 423,
    "location": "Wyncote, Pennsylvania, USA",
    "key": "frc423",
    "country_name": "USA",
    "motto": "Simple machines, complex ideas",
    "nickname": "Simple Machines"
  },
  {
    "website": "http://www.firstfirebirds433.com",
    "name": "Comcast / Arris / Scala, Inc. & Mount St Joseph Academy",
    "locality": "Flourtown",
    "rookie_year": 2000,
    "region": "Pennsylvania",
    "team_number": 433,
    "location": "Flourtown, Pennsylvania, USA",
    "key": "frc433",
    "country_name": "USA",
    "motto": "Once a Firebird, Always a Firebird",
    "nickname": "Firebirds"
  },
  {
    "website": "http://www.demonrobotics4342.org/#home1",
    "name": "Kennett Education Foundation/Phillips Mushroom Farms/Sinton Heating & Air Conditioning & Kennett Hs",
    "locality": "Kennett Square",
    "rookie_year": 2012,
    "region": "Pennsylvania",
    "team_number": 4342,
    "location": "Kennett Square, Pennsylvania, USA",
    "key": "frc4342",
    "country_name": "USA",
    "motto": null,
    "nickname": "Demon Robotics"
  },
  {
    "website": "http://www.firstinspires.org/",
    "name": "Abington Friends School",
    "locality": "Jenkintown",
    "rookie_year": 2012,
    "region": "Pennsylvania",
    "team_number": 4373,
    "location": "Jenkintown, Pennsylvania, USA",
    "key": "frc4373",
    "country_name": "USA",
    "motto": null,
    "nickname": "RooBotics"
  },
  {
    "website": "http://www.firstinspires.org/",
    "name": "Comcast / Boeing / 2015 FRC Hardship Grant & St Hubert Catholic High School for Girls",
    "locality": "Philadelphia",
    "rookie_year": 2013,
    "region": "Pennsylvania",
    "team_number": 4637,
    "location": "Philadelphia, Pennsylvania, USA",
    "key": "frc4637",
    "country_name": "USA",
    "motto": "We saved our school in six weeks... We can build a robot in six weeks",
    "nickname": "BambieBotz"
  },
  {
    "website": "http://www.firstinspires.org/",
    "name": "Picatinny Arsenal / Manhattan College & Don Bosco Prep High School",
    "locality": "Ramsey",
    "rookie_year": 2013,
    "region": "New Jersey",
    "team_number": 4653,
    "location": "Ramsey, New Jersey, USA",
    "key": "frc4653",
    "country_name": "USA",
    "motto": null,
    "nickname": "Ironmen Robotics"
  },
  {
    "website": "http://www.team484.org",
    "name": "Comcast / Piazza Honda of Springfield  / Kelly Music For Life & Haverford Shs",
    "locality": "Havertown",
    "rookie_year": 2000,
    "region": "Pennsylvania",
    "team_number": 484,
    "location": "Havertown, Pennsylvania, USA",
    "key": "frc484",
    "country_name": "USA",
    "motto": "Where Students Engineer",
    "nickname": "Roboforce"
  },
  {
    "website": "http://www.team486.com",
    "name": "The Boeing Company/Tancredi's Auto & Truck/3M Dyneon & Strath Haven Hs",
    "locality": "Wallingford",
    "rookie_year": 2000,
    "region": "Pennsylvania",
    "team_number": 486,
    "location": "Wallingford, Pennsylvania, USA",
    "key": "frc486",
    "country_name": "USA",
    "motto": null,
    "nickname": "Positronic Panthers"
  },
  {
    "website": "http://www.team4954.org/",
    "name": "2014 FRC Rookie Grant / Apple Inc. / Benevity / Kimberly Clark Foundation / Saviak Technologies, Inc. / Walmart / Waterlogic / Wyncote Foundation & University of Delaware 4-H Program",
    "locality": "Middletown",
    "rookie_year": 2014,
    "region": "Delaware",
    "team_number": 4954,
    "location": "Middletown, Delaware, USA",
    "key": "frc4954",
    "country_name": "USA",
    "motto": null,
    "nickname": "Palindrome Robotics"
  },
  {
    "website": "https://www.lschs.org/clubs-activities/robotics",
    "name": "Aegis Industrial Software Corporation / La Salle College High School Mothers' Club / Stantec / Strictly Residential Services  / Fitzpatrick Funeral Home / Treasured Signs / Lockheed Martin / La Salle College High School / The Boeing Company / 2014 FRC Rookie Grant (Argosy Foundation) & La Salle College High School",
    "locality": "Wyndmoor",
    "rookie_year": 2014,
    "region": "Pennsylvania",
    "team_number": 5181,
    "location": "Wyndmoor, Pennsylvania, USA",
    "key": "frc5181",
    "country_name": "USA",
    "motto": "Don't let perfect be the enemy of good.",
    "nickname": "La Salle Robotics"
  },
  {
    "website": "http://www.firstinspires.org/",
    "name": "The Boeing Company / PECO / Tech Cycle Performance Products / Pennsylvania Steel / Coren Metal Inc. & Bensalem Twp Hs",
    "locality": "Bensalem",
    "rookie_year": 2015,
    "region": "Pennsylvania",
    "team_number": 5401,
    "location": "Bensalem, Pennsylvania, USA",
    "key": "frc5401",
    "country_name": "USA",
    "motto": null,
    "nickname": "Fightin' Robotic Owls"
  },
  {
    "website": "http:///www.FRC5404.org",
    "name": "Philadelphia Scientific / Vaughan / New Age Industries / Boeing / Crown Metal  & North Montco Tech Career Center & North Penn Shs",
    "locality": "Lansdale",
    "rookie_year": 2015,
    "region": "Pennsylvania",
    "team_number": 5404,
    "location": "Lansdale, Pennsylvania, USA",
    "key": "frc5404",
    "country_name": "USA",
    "motto": "Creativity and Inspiration",
    "nickname": "Gearaffes"
  },
  {
    "website": "http://www.firstinspires.org/",
    "name": "Vulcan Spring & Manufacturing Company/Scott Rankin/The Boeing Company/Aspen Resource Group /AIM Academy & AIM ACADEMY",
    "locality": "Conshohocken",
    "rookie_year": 2015,
    "region": "Pennsylvania",
    "team_number": 5407,
    "location": "Conshohocken, Pennsylvania, USA",
    "key": "frc5407",
    "country_name": "USA",
    "motto": null,
    "nickname": "Wolfpack Robotics"
  },
  {
    "website": "http://www.firstinspires.org/",
    "name": "Cumberland County College / SteamWorks Makerspace - City of Bridgeton / NASA / Walmart / Atlantic City Electric / Dunkin Donuts & South Jersey Robotics - Bridgeton",
    "locality": "Bridgeton",
    "rookie_year": 2015,
    "region": "New Jersey",
    "team_number": 5420,
    "location": "Bridgeton, New Jersey, USA",
    "key": "frc5420",
    "country_name": "USA",
    "motto": null,
    "nickname": "Velocity"
  },
  {
    "website": "http://www.firstinspires.org/",
    "name": "Moravian Academy",
    "locality": "Bethlehem",
    "rookie_year": 2015,
    "region": "Pennsylvania",
    "team_number": 5490,
    "location": "Bethlehem, Pennsylvania, USA",
    "key": "frc5490",
    "country_name": "USA",
    "motto": null,
    "nickname": "The Dark Byte"
  },
  {
    "website": "http://www.firstinspires.org/",
    "name": "little town robotics academy",
    "locality": "chester",
    "rookie_year": 2016,
    "region": "Pennsylvania",
    "team_number": 6216,
    "location": "chester, Pennsylvania, USA",
    "key": "frc6216",
    "country_name": "USA",
    "motto": null,
    "nickname": "movers and shakers "
  },
  {
    "website": "http://www.team708.org/",
    "name": "Lockheed Martin/AutoDesk/Carr & Duff/Danella Rental Systems/Hatboro-Horsham Education Foundation/Detroit Wheel & Tire/Hatboro Federal Savings & Hatboro-Horsham Shs",
    "locality": "Horsham",
    "rookie_year": 2001,
    "region": "Pennsylvania",
    "team_number": 708,
    "location": "Horsham, Pennsylvania, USA",
    "key": "frc708",
    "country_name": "USA",
    "motto": null,
    "nickname": "Hatters Robotics"
  },
  {
    "website": "http://www.team816.com/",
    "name": "Burlington County Institute of Technology Westampton & Inst of Tech  Westampton",
    "locality": "Westampton",
    "rookie_year": 2002,
    "region": "New Jersey",
    "team_number": 816,
    "location": "Westampton, New Jersey, USA",
    "key": "frc816",
    "country_name": "USA",
    "motto": null,
    "nickname": "Anomaly"
  }
]